{"success":true,"data":{"centerMap":{"latitude":36.66853,"longitude":117.02035899999998},"results":[{"id":"257462","location":{"latitude":36.661734,"longitude":116.997187},"title":"济南振华人民商场店","infoType":"addressbox","address":{"zip":"250001","address1":"济南市市中区经四路","city":"济南"}},{"id":"257086","location":{"latitude":36.695745,"longitude":116.977064},"title":"济南银座金牛店","infoType":"addressbox","address":{"zip":"250031","address1":"济南市无影山路与师范路交汇处","city":"济南"}},{"id":"254762","location":{"latitude":36.189706,"longitude":117.114327},"title":"国美泰安店","infoType":"addressbox","address":{"zip":"271000","address1":"泰安市东岳大街60号","city":"泰安"}},{"id":"256492","location":{"latitude":37.05275,"longitude":118.412283},"title":"广饶银座","infoType":"addressbox","address":{"zip":"257300","address1":"山东省广饶县乐安大街孙武路交汇处银座商城","city":"东营"}},{"id":"257182","location":{"latitude":35.426498,"longitude":116.607735},"title":"济宁大润发","infoType":"addressbox","address":{"zip":"272000","address1":"济宁市琵琶山路","city":"济宁"}},{"id":"253101","location":{"latitude":37.462367,"longitude":118.47796},"title":"东营三联","infoType":"addressbox","address":{"zip":"257000","address1":"山东省东营市济南189号","city":"东营"}},{"id":"253102","location":{"latitude":37.462394,"longitude":118.499614},"title":"东营供销商场","infoType":"addressbox","address":{"zip":"257097","address1":"东营市济南路供销商场","city":"东营"}},{"id":"253109","location":{"latitude":37.465685,"longitude":118.507426},"title":"东营银座二店","infoType":"addressbox","address":{"zip":"257000","address1":"东营市西三路22号","city":"东营"}},{"id":"259404","location":{"latitude":35.396304,"longitude":116.094771},"title":"菏泽巨野银座广场","infoType":"addressbox","address":{"zip":"274900","address1":"巨野县人民医院对面","city":"菏泽"}},{"id":"259269","location":{"latitude":37.735302,"longitude":115.69868},"title":"衡水吉美百货","infoType":"addressbox","address":{"zip":"053000","address1":"衡水市榕花街96号","city":"衡水"}},{"id":"257806","location":{"latitude":36.719173,"longitude":119.147991},"title":"潍坊三联家电新华路店","infoType":"addressbox","address":{"zip":"261061","address1":"潍坊市新华路中段","city":"潍坊"}},{"id":"256128","location":{"latitude":35.58347,"longitude":118.831739},"title":"日照万德福莒县店专柜","infoType":"addressbox","address":{"zip":"276500","address1":"莒县青年中路","city":"日照"}},{"id":"256726","location":{"latitude":34.867497,"longitude":117.563827},"title":"枣庄三联","infoType":"addressbox","address":{"zip":"277101","address1":"枣庄市公胜街59号","city":"枣庄"}},{"id":"253566","location":{"latitude":34.721656,"longitude":116.937532},"title":"五星徐州沛县店","infoType":"addressbox","address":{"zip":"221600","address1":"沛县汉城北路202号京佳购物中心一楼","city":"徐州"}},{"id":"259527","location":{"latitude":36.604172,"longitude":114.484134},"title":"邯郸康德电器","infoType":"addressbox","address":{"zip":"056002","address1":"邯郸市和平路122号","city":"邯郸"}},{"id":"258344","location":{"latitude":37.761997,"longitude":114.770848},"title":"石家庄赵县信誉楼","infoType":"addressbox","address":{"zip":"051530","address1":"赵县自强路赵县信誉楼","city":"石家庄"}},{"id":"259969","location":{"latitude":36.382056,"longitude":119.776336},"title":"高密维客","infoType":"addressbox","address":{"zip":"261500","address1":"高密市人民大街中段","city":"青岛"}},{"id":"259526","location":{"latitude":36.692152,"longitude":114.198382},"title":"邯郸市武安新世纪商场","infoType":"addressbox","address":{"zip":"056300","address1":"河北省邯郸市武安市中兴路939号","city":"邯郸"}},{"id":"256443","location":{"latitude":35.418353,"longitude":119.469498},"title":"日照凌云家电城","infoType":"addressbox","address":{"zip":"276800","address1":"日照市兴海路东段109号","city":"日照"}},{"id":"256444","location":{"latitude":35.423221,"longitude":119.476018},"title":"日照利群购物中心专柜","infoType":"addressbox","address":{"zip":"276800","address1":"日照市海曲中路76号","city":"日照"}},{"id":"256185","location":{"latitude":35.389942,"longitude":119.541254},"title":"日照石臼瑞泰购物广场","infoType":"addressbox","address":{"zip":"276800","address1":"日照市石臼海滨三路中段","city":"日照"}},{"id":"256327","location":{"latitude":34.264619,"longitude":117.204761},"title":"徐州蓝天","infoType":"addressbox","address":{"zip":"221003","address1":"徐州市淮海东路184号","city":"徐州"}},{"id":"259564","location":{"latitude":35.415076,"longitude":119.567943},"title":"酒泉国美电器","infoType":"addressbox","address":{"zip":"735100","address1":"酒泉市肃州区北大街6号","city":"酒泉"}},{"id":"254286","location":{"latitude":34.258953,"longitude":117.188525},"title":"国美徐州彭城店","infoType":"addressbox","address":{"zip":"221005","address1":"徐州市彭城路3号范亚大厦","city":"徐州"}},{"id":"254977","location":{"latitude":34.25439,"longitude":117.163754},"title":"大润发徐州店","infoType":"addressbox","address":{"zip":"221006","address1":"徐州市煤建西路5号","city":"徐州"}},{"id":"258870","location":{"latitude":38.04359,"longitude":114.480619},"title":"苏宁石家庄国贸店","infoType":"addressbox","address":{"zip":"050004","address1":"石家庄市中山西路125号","city":"石家庄"}},{"id":"256293","location":{"latitude":34.301122,"longitude":117.987777},"title":"徐州百惠家美","infoType":"addressbox","address":{"zip":"221003","address1":"徐州市青年东路137号","city":"徐州"}},{"id":"259416","location":{"latitude":36.166608,"longitude":113.812407},"title":"苏宁长治店","infoType":"addressbox","address":{"zip":"010011","address1":"长治解放路","city":"长治"}},{"id":"253481","location":{"latitude":34.600713,"longitude":119.183622},"title":"五星连云港店","infoType":"addressbox","address":{"zip":"222002","address1":"通灌北路76号","city":"连云港"}},{"id":"260082","location":{"latitude":36.305579,"longitude":120.41502},"title":"青岛城阳利群","infoType":"addressbox","address":{"zip":"266109","address1":"青岛市城阳区青威路与正阳路交界处","city":"青岛"}},{"id":"258734","location":{"latitude":39.538047,"longitude":116.683752},"title":"苏宁廊坊银河店","infoType":"addressbox","address":{"zip":"065000","address1":"廊坊市银河路东街口","city":"天津"}},{"id":"256402","location":{"latitude":35.305416,"longitude":113.874415},"title":"新乡大商电器平原路店","infoType":"addressbox","address":{"zip":"453000","address1":"新乡市平原路88号","city":"新乡"}},{"id":"255638","location":{"latitude":33.961994,"longitude":118.275497},"title":"宿迁时代超市","infoType":"addressbox","address":{"zip":"223800","address1":"宿迁市幸福中路","city":"宿迁"}},{"id":"255495","location":{"latitude":39.620488,"longitude":118.184013},"title":"家乐唐山新天地店","infoType":"addressbox","address":{"zip":"063000","address1":"文化路和国防道(新天地)交叉口处","city":"唐山"}},{"id":"256466","location":{"latitude":39.908241,"longitude":116.662273},"title":"新百家电银川金泰店","infoType":"addressbox","address":{"zip":"750003","address1":"新华东街258号","city":"银川"}},{"id":"256283","location":{"latitude":39.900597,"longitude":116.282501},"title":"旺市百利北京五棵松店","infoType":"addressbox","address":{"zip":"100039","address1":"海淀区西翠路5号","city":"北京"}},{"id":"254957","location":{"latitude":39.921034,"longitude":116.443188},"title":"大润发北京民族园店","infoType":"addressbox","address":{"zip":"100600","address1":"北京市朝阳区秀水商贸大厦","city":"北京"}},{"id":"256284","location":{"latitude":39.922974,"longitude":116.444568},"title":"旺市百利北京朝阳门店","infoType":"addressbox","address":{"zip":"100020","address1":"朝阳门外大街12号昆泰商城","city":"北京"}},{"id":"255607","location":{"latitude":34.786549,"longitude":113.681753},"title":"家乐福郑州国贸店","infoType":"addressbox","address":{"zip":"452370","address1":"花园路与农业路交叉口","city":"郑州"}},{"id":"254401","location":{"latitude":39.929376,"longitude":116.303645},"title":"国美北京西三环店","infoType":"addressbox","address":{"zip":"100048","address1":"海淀区西三环北路105号科原大厦","city":"北京"}},{"id":"259681","location":{"latitude":34.533032,"longitude":113.826571},"title":"郑州华润万家帝湖店","infoType":"addressbox","address":{"zip":"450006","address1":"郑州市航海路193号","city":"郑州"}},{"id":"260018","location":{"latitude":39.991893,"longitude":116.296907},"title":"麦德龙北京万泉河店","infoType":"addressbox","address":{"zip":"100000","address1":"海淀区新建宫门路1号","city":"北京"}},{"id":"258994","location":{"latitude":35.227041,"longitude":113.247899},"title":"苏宁焦作山阳商城店","infoType":"addressbox","address":{"zip":"454003","address1":"焦作市塔南路","city":"焦作"}},{"id":"253449","location":{"latitude":33.596721,"longitude":119.028642},"title":"五星淮安店","infoType":"addressbox","address":{"zip":"223002","address1":"淮海东路71号","city":"淮安"}},{"id":"257090","location":{"latitude":33.59812,"longitude":119.03518},"title":"淮安清江商场","infoType":"addressbox","address":{"zip":"223002","address1":"淮海东路1号","city":"淮安"}},{"id":"253452","location":{"latitude":33.990334,"longitude":119.820831},"title":"五星滨海店","infoType":"addressbox","address":{"zip":"224500","address1":"滨海市阜中东路248号","city":"盐城"}},{"id":"257734","location":{"latitude":35.097838,"longitude":112.952686},"title":"焦作焦东超市","infoType":"addressbox","address":{"zip":"454002","address1":"焦作市东环北路体育馆东门对面","city":"焦作"}},{"id":"259244","location":{"latitude":32.938997,"longitude":117.355536},"title":"蚌埠天洋中心花园店","infoType":"addressbox","address":{"zip":"233000","address1":"蚌埠市胜利中路188号","city":"蚌埠"}},{"id":"259246","location":{"latitude":32.93812,"longitude":117.349271},"title":"蚌埠天洋电器","infoType":"addressbox","address":{"zip":"233000","address1":"蚌埠市纬四路143号","city":"蚌埠"}},{"id":"258270","location":{"latitude":39.930206,"longitude":119.582838},"title":"秦皇岛广缘超市奥体店","infoType":"addressbox","address":{"zip":"066002","address1":"河北大街奥体中心院内","city":"秦皇岛"}},{"id":"258268","location":{"latitude":39.949517,"longitude":119.606746},"title":"秦皇岛广缘太阳城店","infoType":"addressbox","address":{"zip":"066001","address1":"秦皇岛市海港区民族路太阳城125号","city":"秦皇岛"}},{"id":"257301","location":{"latitude":34.896938,"longitude":112.599448},"title":"洛阳吉利大张超市","infoType":"addressbox","address":{"zip":"471012","address1":"洛阳市吉利区河阳路","city":"洛阳"}},{"id":"255076","location":{"latitude":37.912076,"longitude":112.171472},"title":"太原华联桃园店","infoType":"addressbox","address":{"zip":"030200","address1":"太原市桃园路","city":"太原"}},{"id":"254160","location":{"latitude":37.488796,"longitude":122.135801},"title":"国美威海海滨北路店","infoType":"addressbox","address":{"zip":"264200","address1":"威海市海滨北路128号","city":"威海"}},{"id":"258205","location":{"latitude":33.38497,"longitude":120.150155},"title":"盐城时代超市海华店","infoType":"addressbox","address":{"zip":"224000","address1":"盐城建军路海华广场","city":"盐城"}},{"id":"255675","location":{"latitude":33.741839,"longitude":113.306672},"title":"平顶山永乐电器","infoType":"addressbox","address":{"zip":"467000","address1":"平顶山市优越路与中兴路口","city":"平顶山"}},{"id":"257270","location":{"latitude":34.624028,"longitude":112.44615},"title":"洛阳丹尼斯政和店","infoType":"addressbox","address":{"zip":"471023","address1":"洛阳市政和路和金城寨街交叉口","city":"洛阳"}},{"id":"257361","location":{"latitude":34.648078,"longitude":112.405647},"title":"洛阳苏宁电器南昌店","infoType":"addressbox","address":{"zip":"471000","address1":"南昌路与九都路交叉口向西走50米","city":"洛阳"}},{"id":"255014","location":{"latitude":38.920064,"longitude":121.608698},"title":"大连百盛长春路店","infoType":"addressbox","address":{"zip":"116013","address1":"大连市中山区长春路10号","city":"大连"}},{"id":"255012","location":{"latitude":39.100187,"longitude":121.719238},"title":"大连新玛特金州店","infoType":"addressbox","address":{"zip":"116000","address1":"大连市金州区安盛广场27号","city":"大连"}},{"id":"254593","location":{"latitude":39.100187,"longitude":121.719238},"title":"国美大连金州安盛店","infoType":"addressbox","address":{"zip":"116000","address1":"大连市金州区安盛广场1号","city":"大连"}},{"id":"253071","location":{"latitude":36.088067,"longitude":111.51888},"title":"临汾万佳福家和店","infoType":"addressbox","address":{"zip":"041000","address1":"临汾市迎春中街19号","city":"临汾"}},{"id":"254284","location":{"latitude":40.816666,"longitude":114.893284},"title":"国美张家口东鑫店","infoType":"addressbox","address":{"zip":"075000","address1":"张家口市桥东东安大街16号","city":"张家口"}},{"id":"254561","location":{"latitude":40.364357,"longitude":113.751395},"title":"国美大同东方广场店","infoType":"addressbox","address":{"zip":"037004","address1":"大同市大西街27号","city":"大同"}},{"id":"254587","location":{"latitude":40.088398,"longitude":113.29745},"title":"国美大同大富翁店","infoType":"addressbox","address":{"zip":"037004","address1":"大同市教场街21号","city":"大同"}},{"id":"253572","location":{"latitude":32.389606,"longitude":119.396647},"title":"五星扬州邗江路店","infoType":"addressbox","address":{"zip":"225009","address1":"扬州邗江路458号","city":"扬州"}},{"id":"254404","location":{"latitude":31.868519,"longitude":117.283859},"title":"合肥名牌家电广场电器专卖店","infoType":"addressbox","address":{"zip":"230011","address1":"合肥市安徽大市场名牌家电广场38号","city":"合肥"}},{"id":"253504","location":{"latitude":31.860491,"longitude":117.275661},"title":"五星合肥龙图店","infoType":"addressbox","address":{"zip":"230061","address1":"合肥市金寨路432号","city":"合肥"}},{"id":"257200","location":{"latitude":32.471538,"longitude":119.947199},"title":"泰州世纪联华","infoType":"addressbox","address":{"zip":"225309","address1":"泰州市济川东路118号","city":"泰州"}},{"id":"257163","location":{"latitude":32.031004,"longitude":118.740304},"title":"沃尔玛购物广场南京河西店","infoType":"addressbox","address":{"zip":"210019","address1":"江苏省南京市建邺区江东中路118号万达广场","city":"南京"}},{"id":"254322","location":{"latitude":31.821448,"longitude":117.227271},"title":"合肥麦德龙","infoType":"addressbox","address":{"zip":"230051","address1":"合肥市美菱大道90号","city":"合肥"}},{"id":"254073","location":{"latitude":32.020527,"longitude":118.743284},"title":"南京欧尚应天大街店","infoType":"addressbox","address":{"zip":"210019","address1":"南京市应天大街866号","city":"南京"}},{"id":"254072","location":{"latitude":32.020527,"longitude":118.743284},"title":"南京欧尚应天大街店","infoType":"addressbox","address":{"zip":"210019","address1":"南京市应天大街866号","city":"南京"}},{"id":"256841","location":{"latitude":32.192227,"longitude":119.481818},"title":"欧尚镇江学府路店","infoType":"addressbox","address":{"zip":"212003","address1":"镇江学府路68号","city":"镇江"}},{"id":"254843","location":{"latitude":40.754267,"longitude":120.853217},"title":"国美葫芦岛旗舰店","infoType":"addressbox","address":{"zip":"125001","address1":"辽宁省葫芦岛市新华大街12号","city":"葫芦岛"}},{"id":"259838","location":{"latitude":35.025427,"longitude":111.004075},"title":"运城恒隆国际 柜","infoType":"addressbox","address":{"zip":"044000","address1":"运城市南风广场","city":"运城"}},{"id":"258911","location":{"latitude":31.35873,"longitude":118.416352},"title":"芜湖亚夏汽车城","infoType":"addressbox","address":{"zip":"241004","address1":"芜湖市鸠江弋江北路化塘村","city":"芜湖"}},{"id":"255662","location":{"latitude":31.789164,"longitude":119.923902},"title":"常州欧尚五星店","infoType":"addressbox","address":{"zip":"213016","address1":"常州市勤业路88号","city":"常州"}},{"id":"254219","location":{"latitude":31.800226,"longitude":119.967559},"title":"国美常州新北店","infoType":"addressbox","address":{"zip":"213000","address1":"新北区和平路216号","city":"常州"}},{"id":"257409","location":{"latitude":31.920673,"longitude":120.284946},"title":"江阴大润发","infoType":"addressbox","address":{"zip":"214432","address1":"江苏省江阴市希望广场延陵路528号","city":"江阴"}},{"id":"253537","location":{"latitude":31.774995,"longitude":119.953335},"title":"五星常州南大街店","infoType":"addressbox","address":{"zip":"213003","address1":"常州市南大街步行街C10","city":"常州"}},{"id":"258667","location":{"latitude":31.772001,"longitude":119.949562},"title":"苏宁常州广化桥店","infoType":"addressbox","address":{"zip":"213001","address1":"常州市广化桥190-198号","city":"常州"}},{"id":"254752","location":{"latitude":31.903423,"longitude":120.261891},"title":"国美江阴店","infoType":"addressbox","address":{"zip":"214400","address1":"江阴市人民中路287号","city":"江阴"}},{"id":"254753","location":{"latitude":31.904127,"longitude":120.274372},"title":"国美江阴青果路店","infoType":"addressbox","address":{"zip":"214400","address1":"江阴市青果路14号","city":"江阴"}},{"id":"254526","location":{"latitude":39.868995,"longitude":111.237401},"title":"国美呼市薛家湾店","infoType":"addressbox","address":{"zip":"010010","address1":"呼市薛家湾镇火车站南侧国美电器","city":"呼和浩特"}},{"id":"259430","location":{"latitude":40.666408,"longitude":122.206413},"title":"营口香河商场","infoType":"addressbox","address":{"zip":"115003","address1":"营口市西市区渤海大街西60号","city":"营口"}},{"id":"259429","location":{"latitude":40.660664,"longitude":122.23735},"title":"营口财富春天购物中心","infoType":"addressbox","address":{"zip":"115000","address1":"营口市站前区市府路1-3号","city":"营口"}},{"id":"256504","location":{"latitude":31.637317,"longitude":120.269391},"title":"无锡乐购政和店","infoType":"addressbox","address":{"zip":"214174","address1":"无锡市惠山区政和大道新时代广场","city":"无锡"}},{"id":"258835","location":{"latitude":40.678219,"longitude":122.26222},"title":"苏宁营口东圣店","infoType":"addressbox","address":{"zip":"115000","address1":"营口市站前区建设路74号","city":"营口"}},{"id":"253598","location":{"latitude":31.579385,"longitude":120.299126},"title":"五星无锡明珠店","infoType":"addressbox","address":{"zip":"214000","address1":"无锡市崇安区中山路399号","city":"无锡"}},{"id":"260257","location":{"latitude":30.928163,"longitude":117.80807},"title":"铜陵世纪联华","infoType":"addressbox","address":{"zip":"244000","address1":"铜陵市淮河大道中段铜冠广场24号","city":"铜陵"}},{"id":"253534","location":{"latitude":31.367473,"longitude":119.82384},"title":"五星宜兴太滆路店","infoType":"addressbox","address":{"zip":"214200","address1":"宜兴市太滆路","city":"宜兴"}},{"id":"258807","location":{"latitude":31.268371,"longitude":119.633951},"title":"苏宁湖州店","infoType":"addressbox","address":{"zip":"313199","address1":"长兴人民北路","city":"湖州"}},{"id":"253535","location":{"latitude":31.261266,"longitude":119.632584},"title":"五星宜兴店","infoType":"addressbox","address":{"zip":"214254","address1":"宜兴市人民南路198号","city":"宜兴"}},{"id":"254524","location":{"latitude":40.834767,"longitude":111.726296},"title":"国美呼市新华东街店","infoType":"addressbox","address":{"zip":"010010","address1":"呼市赛汗区新华东街","city":"呼和浩特"}},{"id":"255729","location":{"latitude":31.673069,"longitude":120.754967},"title":"常熟乐购","infoType":"addressbox","address":{"zip":"215500","address1":"常熟市海虞北路与淮河路交汇处","city":"常熟"}},{"id":"255740","location":{"latitude":31.686986,"longitude":120.797899},"title":"常熟麦德龙","infoType":"addressbox","address":{"zip":"215516","address1":"常熟市通港路99号","city":"常熟"}},{"id":"257307","location":{"latitude":31.898446,"longitude":121.190184},"title":"海门世纪联华","infoType":"addressbox","address":{"zip":"226100","address1":"海门市青海东路398号","city":"海门"}},{"id":"255736","location":{"latitude":31.664404,"longitude":120.767843},"title":"常熟欧尚世贸店","infoType":"addressbox","address":{"zip":"215500","address1":"常熟市珠江路泰山路口","city":"常熟"}},{"id":"254220","location":{"latitude":31.644933,"longitude":120.757432},"title":"国美常熟店","infoType":"addressbox","address":{"zip":"215500","address1":"常熟市海虞南路62号","city":"常熟"}}]}}